{
"type": "FeatureCollection",
"name": "Bus_Terminals_of_NJ_Transit",
"crs": { "type": "name", "properties": { "name": "urn:ogc:def:crs:OGC:1.3:CRS84" } },
"features": [
{ "type": "Feature", "properties": { "OBJECTID": 1, "COUNTY": "New York, NY", "LATITUDE": 40.84899937, "LONGITUDE": -73.93909912, "TYPE": "Terminal", "OWNER": "Port Authority of NY & NJ", "OPERATOR": "Port Authority of NY & NJ", "PARKING": "No", "NAME": "George Washington Bridge", "MUNICIPALITY": "New York", "TICKET_SELLER": "NJ Transit", "ORIG_FID": null, "SE_ANNO_CAD_DATA": "" }, "geometry": { "type": "Point", "coordinates": [ -73.939100554420094, 40.849007654305602 ] } },
{ "type": "Feature", "properties": { "OBJECTID": 2, "COUNTY": "Passaic", "LATITUDE": 40.92245642, "LONGITUDE": -74.26779934, "TYPE": "Park/Ride", "OWNER": "NJ DOT", "OPERATOR": "NJ Transit", "PARKING": "Yes", "NAME": "Mothers Park & Ride", "MUNICIPALITY": "Wayne Twp", "TICKET_SELLER": "None", "ORIG_FID": null, "SE_ANNO_CAD_DATA": "" }, "geometry": { "type": "Point", "coordinates": [ -74.267800884359005, 40.9224647039293 ] } },
{ "type": "Feature", "properties": { "OBJECTID": 3, "COUNTY": "Hudson", "LATITUDE": 40.73113371, "LONGITUDE": -74.06283274, "TYPE": "Terminal", "OWNER": "Port Authority of NY & NJ", "OPERATOR": "Port Authority of NY & NJ", "PARKING": "No", "NAME": "Journal Square", "MUNICIPALITY": "Jersey City", "TICKET_SELLER": "None", "ORIG_FID": null, "SE_ANNO_CAD_DATA": "" }, "geometry": { "type": "Point", "coordinates": [ -74.062834202864494, 40.731141965287101 ] } },
{ "type": "Feature", "properties": { "OBJECTID": 4, "COUNTY": "Essex", "LATITUDE": 40.73471494, "LONGITUDE": -74.1632765, "TYPE": "Terminal", "OWNER": "NJ Transit", "OPERATOR": "NJ Transit", "PARKING": "No", "NAME": "Newark Penn Station", "MUNICIPALITY": "Newark", "TICKET_SELLER": "NJ Transit & Greyhound", "ORIG_FID": null, "SE_ANNO_CAD_DATA": "" }, "geometry": { "type": "Point", "coordinates": [ -74.163277997021495, 40.734723200305801 ] } },
{ "type": "Feature", "properties": { "OBJECTID": 5, "COUNTY": "Essex", "LATITUDE": 40.72642812, "LONGITUDE": -74.22714374, "TYPE": "Terminal", "OWNER": "NJ Transit", "OPERATOR": "NJ Transit", "PARKING": "Yes", "NAME": "Irvington Bus Terminal", "MUNICIPALITY": "Irvington Twp", "TICKET_SELLER": "Contracted Ticket Agent", "ORIG_FID": null, "SE_ANNO_CAD_DATA": "" }, "geometry": { "type": "Point", "coordinates": [ -74.227145261701807, 40.726436367164197 ] } },
{ "type": "Feature", "properties": { "OBJECTID": 6, "COUNTY": "Passaic", "LATITUDE": 40.91859903, "LONGITUDE": -74.17450074, "TYPE": "Terminal", "OWNER": "NJ Transit", "OPERATOR": "NJ Transit", "PARKING": "No", "NAME": "Broadway Bus Terminal", "MUNICIPALITY": "Paterson", "TICKET_SELLER": "Contracted Ticket Agent", "ORIG_FID": null, "SE_ANNO_CAD_DATA": "" }, "geometry": { "type": "Point", "coordinates": [ -74.174502255690797, 40.918607319675097 ] } },
{ "type": "Feature", "properties": { "OBJECTID": 7, "COUNTY": "Hudson", "LATITUDE": 40.73559233, "LONGITUDE": -74.02900689000001, "TYPE": "Terminal", "OWNER": "NJ Transit", "OPERATOR": "NJ Transit", "PARKING": "No", "NAME": "Hoboken Bus Terminal", "MUNICIPALITY": "Hoboken", "TICKET_SELLER": "NJ Transit", "ORIG_FID": null, "SE_ANNO_CAD_DATA": "" }, "geometry": { "type": "Point", "coordinates": [ -74.029008343623303, 40.735600593553897 ] } },
{ "type": "Feature", "properties": { "OBJECTID": 8, "COUNTY": "Hudson", "LATITUDE": 40.77635034, "LONGITUDE": -74.04288932, "TYPE": "Park/Ride", "OWNER": "Port Authority of NY & NJ", "OPERATOR": "NJ Transit", "PARKING": "Yes", "NAME": "North Bergen Park & Ride", "MUNICIPALITY": "North Bergen Twp", "TICKET_SELLER": "NJ Transit", "ORIG_FID": null, "SE_ANNO_CAD_DATA": "" }, "geometry": { "type": "Point", "coordinates": [ -74.042890784451501, 40.776358608142502 ] } },
{ "type": "Feature", "properties": { "OBJECTID": 9, "COUNTY": "Middlesex", "LATITUDE": 40.44596016, "LONGITUDE": -74.2993074, "TYPE": "Park/Ride", "OWNER": "NJ Transit", "OPERATOR": "NJ Transit", "PARKING": "Yes", "NAME": "Old Bridge Park & Ride", "MUNICIPALITY": "Old Bridge Twp", "TICKET_SELLER": "NJ Transit", "ORIG_FID": null, "SE_ANNO_CAD_DATA": "" }, "geometry": { "type": "Point", "coordinates": [ -74.299308925108207, 40.445968353779598 ] } },
{ "type": "Feature", "properties": { "OBJECTID": 10, "COUNTY": "Passaic", "LATITUDE": 41.04639884, "LONGITUDE": -74.43645297, "TYPE": "Park/Ride", "OWNER": "Town of West Milford", "OPERATOR": "Town of West Milford", "PARKING": "Yes", "NAME": "Newfoundland Park & Ride", "MUNICIPALITY": "West Milford Twp", "TICKET_SELLER": "None", "ORIG_FID": null, "SE_ANNO_CAD_DATA": "" }, "geometry": { "type": "Point", "coordinates": [ -74.436454576848803, 41.046407149838501 ] } },
{ "type": "Feature", "properties": { "OBJECTID": 11, "COUNTY": "New York, NY", "LATITUDE": 40.75719979, "LONGITUDE": -73.99317101, "TYPE": "Terminal", "OWNER": "Port Authority of NY & NJ", "OPERATOR": "Port Authority of NY & NJ", "PARKING": "No", "NAME": "Port Authority Bus Terminal", "MUNICIPALITY": "New York", "TICKET_SELLER": "NJ Transit", "ORIG_FID": null, "SE_ANNO_CAD_DATA": "" }, "geometry": { "type": "Point", "coordinates": [ -73.993172459076803, 40.757208056519502 ] } },
{ "type": "Feature", "properties": { "OBJECTID": 12, "COUNTY": "Passaic", "LATITUDE": 40.85406952, "LONGITUDE": -74.17530044, "TYPE": "Park/Ride", "OWNER": "NJ Highway Authority", "OPERATOR": "NJ Transit", "PARKING": "Yes", "NAME": "Allwood Road Park & Ride", "MUNICIPALITY": "Clifton", "TICKET_SELLER": "None", "ORIG_FID": null, "SE_ANNO_CAD_DATA": "" }, "geometry": { "type": "Point", "coordinates": [ -74.175301954902096, 40.8540778012975 ] } },
{ "type": "Feature", "properties": { "OBJECTID": 13, "COUNTY": "Passaic", "LATITUDE": 40.90087064, "LONGITUDE": -74.25620097, "TYPE": "Park/Ride", "OWNER": "NJ Transit", "OPERATOR": "NJ Transit", "PARKING": "Yes", "NAME": "Wayne Transportation Center", "MUNICIPALITY": "Wayne Twp", "TICKET_SELLER": "None", "ORIG_FID": null, "SE_ANNO_CAD_DATA": "" }, "geometry": { "type": "Point", "coordinates": [ -74.256202507582003, 40.900878922367497 ] } },
{ "type": "Feature", "properties": { "OBJECTID": 14, "COUNTY": "Camden", "LATITUDE": 39.94352944, "LONGITUDE": -75.11821851000001, "TYPE": "Terminal", "OWNER": "NJ Transit", "OPERATOR": "NJ Transit", "PARKING": "Yes", "NAME": "Walter Rand Transportation Center", "MUNICIPALITY": "Camden", "TICKET_SELLER": "NJ Transit & Greyhound", "ORIG_FID": null, "SE_ANNO_CAD_DATA": "" }, "geometry": { "type": "Point", "coordinates": [ -75.118220267614504, 39.943537509598002 ] } },
{ "type": "Feature", "properties": { "OBJECTID": 15, "COUNTY": "Camden", "LATITUDE": 39.71172669, "LONGITUDE": -74.97553419, "TYPE": "Park/Ride", "OWNER": "NJ Transit", "OPERATOR": "NJ Transit", "PARKING": "Yes", "NAME": "Avandale Park & Ride", "MUNICIPALITY": "Winslow Twp", "TICKET_SELLER": "Contracted Ticket Agent", "ORIG_FID": null, "SE_ANNO_CAD_DATA": "" }, "geometry": { "type": "Point", "coordinates": [ -74.975535882991807, 39.711734713399501 ] } },
{ "type": "Feature", "properties": { "OBJECTID": 16, "COUNTY": "Burlington", "LATITUDE": 40.09996454, "LONGITUDE": -74.80483753, "TYPE": "Park/Ride", "OWNER": "NJ Transit", "OPERATOR": "NJ Transit", "PARKING": "Yes", "NAME": "Florence Park & Ride", "MUNICIPALITY": "Florence Twp", "TICKET_SELLER": "NJ Transit", "ORIG_FID": null, "SE_ANNO_CAD_DATA": "" }, "geometry": { "type": "Point", "coordinates": [ -74.804839199339796, 40.099972652395799 ] } },
{ "type": "Feature", "properties": { "OBJECTID": 17, "COUNTY": "Passaic", "LATITUDE": 41.15020062, "LONGITUDE": -74.34710079, "TYPE": "Park/Ride", "OWNER": "West Milford", "OPERATOR": "NJ Transit", "PARKING": "Yes", "NAME": "West Millford Park & Ride", "MUNICIPALITY": "West Milford Twp", "TICKET_SELLER": "None", "ORIG_FID": null, "SE_ANNO_CAD_DATA": "" }, "geometry": { "type": "Point", "coordinates": [ -74.347102373521295, 41.150208947190599 ] } },
{ "type": "Feature", "properties": { "OBJECTID": 18, "COUNTY": "Bergen", "LATITUDE": 40.88197508, "LONGITUDE": -74.04229387, "TYPE": "Terminal", "OWNER": "NJ Transit", "OPERATOR": "NJ Transit", "PARKING": "No", "NAME": "Hackensack Bus Terminal", "MUNICIPALITY": "Hackensack", "TICKET_SELLER": "Contracted Ticket Agent", "ORIG_FID": null, "SE_ANNO_CAD_DATA": "" }, "geometry": { "type": "Point", "coordinates": [ -74.042295342269497, 40.881983370332399 ] } },
{ "type": "Feature", "properties": { "OBJECTID": 19, "COUNTY": "Monmouth", "LATITUDE": 40.21113186, "LONGITUDE": -74.2585816, "TYPE": "Park/Ride", "OWNER": "NJ Transit", "OPERATOR": "NJ Transit", "PARKING": "Yes", "NAME": "Howell Park & Ride", "MUNICIPALITY": "Howell Twp", "TICKET_SELLER": "None", "ORIG_FID": null, "SE_ANNO_CAD_DATA": "" }, "geometry": { "type": "Point", "coordinates": [ -74.2585830943339, 40.211140008738703 ] } },
{ "type": "Feature", "properties": { "OBJECTID": 20, "COUNTY": "Passaic", "LATITUDE": 40.88550006, "LONGITUDE": -74.25859935, "TYPE": "Park/Ride", "OWNER": "Willowbrook Mall", "OPERATOR": "NJ Transit", "PARKING": "Yes", "NAME": "Willowbrook Mall", "MUNICIPALITY": "Wayne Twp", "TICKET_SELLER": "None", "ORIG_FID": null, "SE_ANNO_CAD_DATA": "" }, "geometry": { "type": "Point", "coordinates": [ -74.258600888556003, 40.885508344351699 ] } },
{ "type": "Feature", "properties": { "OBJECTID": 21, "COUNTY": "Cape May", "LATITUDE": 39.2789901, "LONGITUDE": -74.57880816, "TYPE": "Terminal", "OWNER": "NJ Transit", "OPERATOR": "City of Ocean City", "PARKING": "Yes", "NAME": "Ocean City Bus Terminal", "MUNICIPALITY": "Ocean City", "TICKET_SELLER": "Contracted Ticket Agent", "ORIG_FID": null, "SE_ANNO_CAD_DATA": "" }, "geometry": { "type": "Point", "coordinates": [ -74.578809709247295, 39.278998052817599 ] } },
{ "type": "Feature", "properties": { "OBJECTID": 22, "COUNTY": "Cumberland", "LATITUDE": 39.48720015, "LONGITUDE": -75.03419902, "TYPE": "Terminal", "OWNER": "Frank Guaracini Jr. Transportation Co.", "OPERATOR": "NJ Transit", "PARKING": "Yes", "NAME": "Vineland Bus Terminal", "MUNICIPALITY": "Vineland", "TICKET_SELLER": "Contracted Ticket Agent", "ORIG_FID": null, "SE_ANNO_CAD_DATA": "" }, "geometry": { "type": "Point", "coordinates": [ -75.034200723332006, 39.487208122752399 ] } },
{ "type": "Feature", "properties": { "OBJECTID": 23, "COUNTY": "Atlantic", "LATITUDE": 39.3603995, "LONGITUDE": -74.43704889, "TYPE": "Terminal", "OWNER": "NJ Transit", "OPERATOR": "NJ Transit", "PARKING": "No", "NAME": "Atlantic City Bus Terminal", "MUNICIPALITY": "Atlantic City", "TICKET_SELLER": "NJ Transit & Greyhound", "ORIG_FID": null, "SE_ANNO_CAD_DATA": "" }, "geometry": { "type": "Point", "coordinates": [ -74.4370503971397, 39.360407468558897 ] } },
{ "type": "Feature", "properties": { "OBJECTID": 24, "COUNTY": "Bergen", "LATITUDE": 40.82679043, "LONGITUDE": -74.02851984, "TYPE": "Park/Ride", "OWNER": "NJ Turnpike", "OPERATOR": "NJ Transit", "PARKING": "Yes", "NAME": "Vince Lombardi Park & Ride", "MUNICIPALITY": "Ridgefield", "TICKET_SELLER": "NJ Transit", "ORIG_FID": null, "SE_ANNO_CAD_DATA": "" }, "geometry": { "type": "Point", "coordinates": [ -74.028521298293299, 40.826798707707702 ] } },
{ "type": "Feature", "properties": { "OBJECTID": 25, "COUNTY": "Ocean", "LATITUDE": 40.09080034, "LONGITUDE": -74.21260102, "TYPE": "Terminal", "OWNER": "NJ Transit", "OPERATOR": "NJ Transit", "PARKING": "No", "NAME": "Lakewood Bus Terminal", "MUNICIPALITY": "Lakewood", "TICKET_SELLER": "NJ Transit", "ORIG_FID": null, "SE_ANNO_CAD_DATA": "" }, "geometry": { "type": "Point", "coordinates": [ -74.212602493971005, 40.090808467823798 ] } },
{ "type": "Feature", "properties": { "OBJECTID": 26, "COUNTY": "Cape May", "LATITUDE": 38.98633073, "LONGITUDE": -74.82284286, "TYPE": "Terminal", "OWNER": "NJ Transit", "OPERATOR": "NJ Transit", "PARKING": "Yes", "NAME": "Wildwood Bus Terminal", "MUNICIPALITY": "Wildwood", "TICKET_SELLER": "NJ Transit", "ORIG_FID": null, "SE_ANNO_CAD_DATA": "" }, "geometry": { "type": "Point", "coordinates": [ -74.822844464686796, 38.986338610512902 ] } },
{ "type": "Feature", "properties": { "OBJECTID": 27, "COUNTY": "Cape May", "LATITUDE": 38.93510014, "LONGITUDE": -74.9227011, "TYPE": "Terminal", "OWNER": "City of Cape May", "OPERATOR": "City of Cape May", "PARKING": "No", "NAME": "Cape May Bus Terminal", "MUNICIPALITY": "Cape May", "TICKET_SELLER": "None", "ORIG_FID": null, "SE_ANNO_CAD_DATA": "" }, "geometry": { "type": "Point", "coordinates": [ -74.922702730329405, 38.935108004903299 ] } },
{ "type": "Feature", "properties": { "OBJECTID": 28, "COUNTY": "Somerset", "LATITUDE": 40.56839204, "LONGITUDE": -74.68103467, "TYPE": "Park/Ride", "OWNER": "NJ DOT", "OPERATOR": "Trans-Bridge", "PARKING": "Yes", "NAME": "Branchburg Park & Ride", "MUNICIPALITY": "Branchburg Twp", "TICKET_SELLER": "None", "ORIG_FID": null, "SE_ANNO_CAD_DATA": "" }, "geometry": { "type": "Point", "coordinates": [ -74.681036321246296, 40.568400240849897 ] } },
{ "type": "Feature", "properties": { "OBJECTID": 29, "COUNTY": "Monmouth", "LATITUDE": 40.38559928, "LONGITUDE": -74.18305101, "TYPE": "Park/Ride", "OWNER": "NJ Highway Authority", "OPERATOR": "Academy", "PARKING": "Yes", "NAME": "PNC Arts Center", "MUNICIPALITY": "Holmdel Twp", "TICKET_SELLER": "None", "ORIG_FID": null, "SE_ANNO_CAD_DATA": "" }, "geometry": { "type": "Point", "coordinates": [ -74.1830524971149, 40.385607466114003 ] } },
{ "type": "Feature", "properties": { "OBJECTID": 30, "COUNTY": "Monmouth", "LATITUDE": 40.33903143, "LONGITUDE": -74.30438869, "TYPE": "Park/Ride", "OWNER": "Marlboro", "OPERATOR": "NJ Transit", "PARKING": "Yes", "NAME": "Union Hill Park & Ride", "MUNICIPALITY": "Marlboro Twp", "TICKET_SELLER": "NJ Transit", "ORIG_FID": null, "SE_ANNO_CAD_DATA": "" }, "geometry": { "type": "Point", "coordinates": [ -74.304390214893402, 40.339039599023899 ] } },
{ "type": "Feature", "properties": { "OBJECTID": 31, "COUNTY": "Bergen", "LATITUDE": 40.99146497, "LONGITUDE": -74.09614347, "TYPE": "Terminal", "OWNER": "NJ DOT", "OPERATOR": "NJ Transit", "PARKING": "Yes", "NAME": "Ridgewood Bus Terminal", "MUNICIPALITY": "Ridgewood", "TICKET_SELLER": "None", "ORIG_FID": null, "SE_ANNO_CAD_DATA": "" }, "geometry": { "type": "Point", "coordinates": [ -74.096144964982997, 40.991473277338599 ] } },
{ "type": "Feature", "properties": { "OBJECTID": 32, "COUNTY": "Monmouth", "LATITUDE": 40.1562512, "LONGITUDE": -74.22717019, "TYPE": "Park/Ride", "OWNER": "Howell", "OPERATOR": "NJ Transit", "PARKING": "Yes", "NAME": "Aldrich Park & Ride", "MUNICIPALITY": "Howell Twp", "TICKET_SELLER": "None", "ORIG_FID": null, "SE_ANNO_CAD_DATA": "" }, "geometry": { "type": "Point", "coordinates": [ -74.227171670992902, 40.156259338481298 ] } },
{ "type": "Feature", "properties": { "OBJECTID": 33, "COUNTY": "Bergen", "LATITUDE": 40.96396479, "LONGITUDE": -74.0658645, "TYPE": "Park/Ride", "OWNER": "NJ DOT", "OPERATOR": "NJ Transit", "PARKING": "Yes", "NAME": "Garden State Parkway Exit 165 Park & Ride", "MUNICIPALITY": "Paramus", "TICKET_SELLER": "None", "ORIG_FID": null, "SE_ANNO_CAD_DATA": "" }, "geometry": { "type": "Point", "coordinates": [ -74.065865980026899, 40.9639730971681 ] } },
{ "type": "Feature", "properties": { "OBJECTID": 34, "COUNTY": "Sussex", "LATITUDE": 41.0156471, "LONGITUDE": -74.61590046000001, "TYPE": "Park/Ride", "OWNER": "NJ DOT", "OPERATOR": "Lakeland", "PARKING": "Yes", "NAME": "Sparta Park & Ride", "MUNICIPALITY": "Sparta Twp", "TICKET_SELLER": "None", "ORIG_FID": null, "SE_ANNO_CAD_DATA": "" }, "geometry": { "type": "Point", "coordinates": [ -74.615902120648201, 41.015655391902797 ] } },
{ "type": "Feature", "properties": { "OBJECTID": 35, "COUNTY": "Hunterdon", "LATITUDE": 40.63917234, "LONGITUDE": -74.89396223, "TYPE": "Park/Ride", "OWNER": "NJ DOT/Transbridge", "OPERATOR": "Trans-Bridge", "PARKING": "Yes", "NAME": "Clinton Park & Ride", "MUNICIPALITY": "Clinton", "TICKET_SELLER": "Transbridge", "ORIG_FID": null, "SE_ANNO_CAD_DATA": "" }, "geometry": { "type": "Point", "coordinates": [ -74.893963957590799, 40.639180545595103 ] } },
{ "type": "Feature", "properties": { "OBJECTID": 36, "COUNTY": "Ocean", "LATITUDE": 39.65143899, "LONGITUDE": -74.34424998, "TYPE": "Park/Ride", "OWNER": "Ocean County", "OPERATOR": "NJ Transit", "PARKING": "Yes", "NAME": "Southern Ocean County Park & Ride", "MUNICIPALITY": "Little Egg Harbor Twp", "TICKET_SELLER": "None", "ORIG_FID": null, "SE_ANNO_CAD_DATA": "" }, "geometry": { "type": "Point", "coordinates": [ -74.344251471648306, 39.651447028126 ] } },
{ "type": "Feature", "properties": { "OBJECTID": 37, "COUNTY": "Orange, NY", "LATITUDE": 41.24781732, "LONGITUDE": -74.33883513000001, "TYPE": "Park/Ride", "OWNER": "Warwick", "OPERATOR": "NJ Transit", "PARKING": "Yes", "NAME": "Warwick Park & Ride", "MUNICIPALITY": "Warwick", "TICKET_SELLER": "None", "ORIG_FID": null, "SE_ANNO_CAD_DATA": "" }, "geometry": { "type": "Point", "coordinates": [ -74.338836713017201, 41.247825665437901 ] } },
{ "type": "Feature", "properties": { "OBJECTID": 38, "COUNTY": "Passaic", "LATITUDE": 40.82857101, "LONGITUDE": -74.13723183, "TYPE": "Park/Ride", "OWNER": "Clifton Commons", "OPERATOR": "NJ Transit", "PARKING": "Yes", "NAME": "Clifton Commons", "MUNICIPALITY": "Clifton", "TICKET_SELLER": "None", "ORIG_FID": null, "SE_ANNO_CAD_DATA": "" }, "geometry": { "type": "Point", "coordinates": [ -74.137233329700507, 40.828579280954102 ] } },
{ "type": "Feature", "properties": { "OBJECTID": 39, "COUNTY": "Orange, NY", "LATITUDE": 41.22332352, "LONGITUDE": -74.29594006000001, "TYPE": "Park/Ride", "OWNER": "Greenwood Lake", "OPERATOR": "NJ Transit", "PARKING": "Yes", "NAME": "Greenwood Lake Park & Ride", "MUNICIPALITY": "Greenwood Lake", "TICKET_SELLER": "None", "ORIG_FID": null, "SE_ANNO_CAD_DATA": "" }, "geometry": { "type": "Point", "coordinates": [ -74.295941637221503, 41.223331865660803 ] } },
{ "type": "Feature", "properties": { "OBJECTID": 40, "COUNTY": "Cape May", "LATITUDE": 39.18169204, "LONGITUDE": -74.72268777, "TYPE": "Park/Ride", "OWNER": "Garden State Parkway", "OPERATOR": "NJ Transit", "PARKING": "Yes", "NAME": "Ocean View Park & Ride", "MUNICIPALITY": "Dennis Twp", "TICKET_SELLER": "None", "ORIG_FID": null, "SE_ANNO_CAD_DATA": "" }, "geometry": { "type": "Point", "coordinates": [ -74.722689351860794, 39.181699962209798 ] } },
{ "type": "Feature", "properties": { "OBJECTID": 41, "COUNTY": "Passaic", "LATITUDE": 40.86292871, "LONGITUDE": -74.12742214, "TYPE": "Terminal", "OWNER": "Passaic", "OPERATOR": "NJ Transit", "PARKING": "Yes", "NAME": "Passaic Main Avenue Bus Terminal", "MUNICIPALITY": "Passaic", "TICKET_SELLER": "None", "ORIG_FID": null, "SE_ANNO_CAD_DATA": "" }, "geometry": { "type": "Point", "coordinates": [ -74.127423632930501, 40.862936995970699 ] } },
{ "type": "Feature", "properties": { "OBJECTID": 42, "COUNTY": "Ocean", "LATITUDE": 40.09874494, "LONGITUDE": -74.14038461, "TYPE": "Park/Ride", "OWNER": "NJ Highway Authority", "OPERATOR": "NJ Transit", "PARKING": "Yes", "NAME": "Brick Park & Ride", "MUNICIPALITY": "Brick Twp", "TICKET_SELLER": "None", "ORIG_FID": null, "SE_ANNO_CAD_DATA": "" }, "geometry": { "type": "Point", "coordinates": [ -74.140386064020504, 40.098753072004001 ] } },
{ "type": "Feature", "properties": { "OBJECTID": 43, "COUNTY": "Passaic", "LATITUDE": 41.08872503, "LONGITUDE": -74.26625617000001, "TYPE": "Park/Ride", "OWNER": "Ringwood", "OPERATOR": "NJ Transit", "PARKING": "Yes", "NAME": "Ringwood Park & Ride", "MUNICIPALITY": "Ringwood", "TICKET_SELLER": "None", "ORIG_FID": null, "SE_ANNO_CAD_DATA": "" }, "geometry": { "type": "Point", "coordinates": [ -74.266257723238994, 41.088733349200098 ] } },
{ "type": "Feature", "properties": { "OBJECTID": 44, "COUNTY": "Sussex", "LATITUDE": 41.09792555, "LONGITUDE": -74.53120597, "TYPE": "Park/Ride", "OWNER": "St John RC Church", "OPERATOR": "NJ Transit", "PARKING": "Yes", "NAME": "Stockholm Park & Ride", "MUNICIPALITY": "Hardyston Twp", "TICKET_SELLER": "None", "ORIG_FID": null, "SE_ANNO_CAD_DATA": "" }, "geometry": { "type": "Point", "coordinates": [ -74.531207605803402, 41.0979338610978 ] } }
]
}
